"Product","Blackbox flight data recorder by Nicholas Sherlock"
"firmwareType",3
"firmware","4.4"
"firmwarePatch",2
"firmwareVersion","4.4.2"
"Firmware revision","Betaflight 4.4.2 (23d066d08) STM32F7X2"
"Firmware date","Jun  1 2023 08:37:20"
"Board information","TMTR TMOTORF7"
"Log start datetime","0000-01-01T00:00:00.000+00:00"
"Craft name",""
"frameIntervalI",102
"frameIntervalPNum",1
"frameIntervalPDenom",2
"minthrottle",1070
"maxthrottle",2000
"gyroScale",1.7453292519943295e-8
"motorOutput","158,2047"
"acc_1G",2048
"vbatscale",110
"vbatmincellvoltage",330
"vbatwarningcellvoltage",350
"vbatmaxcellvoltage",430
"vbatref",1617
"currentMeterOffset",0
"currentMeterScale",400
"looptime",312
"gyro_sync_denom",1
"pid_process_denom",1
"thrMid",60
"thrExpo",80
"dynThrPID",65
"tpa_breakpoint",1350
"rc_rates","5,5,6"
"rc_expo","0,0,0"
"rates","20,20,30"
"rate_limits","1998,1998,1998"
"rollPID","31,56,28,21,84"
"pitchPID","32,58,32,23,87"
"yawPID","31,56,0,0,84"
"levelPID","50,50,75"
"magPID","40,,"
"d_min_gain",37
"d_min_advance",20
"dterm_filter_type",0
"dterm_lpf_hz",75
"dterm_lpf_dyn_hz","75,150"
"dterm_filter2_type",0
"dterm_lpf2_hz",150
"yaw_lpf_hz",100
"dterm_notch_hz",0
"dterm_notch_cutoff",0
"itermWindupPointPercent",85
"iterm_relax",1
"iterm_relax_type",1
"iterm_relax_cutoff",15
"pidAtMinThrottle",1
"anti_gravity_gain",80
"abs_control_gain",0
"use_integrated_yaw",0
"ff_transition",0
"ff_averaging",0
"ff_smooth_factor",25
"ff_jitter_factor",7
"ff_boost",15
"ff_max_rate_limit",90
"yawRateAccelLimit",0
"rateAccelLimit",0
"pidSumLimit",500
"pidSumLimitYaw",400
"deadband",0
"yaw_deadband",0
"gyro_lpf",0
"gyro_soft_type",0
"gyro_lowpass_hz",250
"gyro_lowpass_dyn_hz","250,500"
"gyro_soft2_type",0
"gyro_lowpass2_hz",500
"gyro_notch_hz","0,0"
"gyro_notch_cutoff","0,0"
"gyro_to_use",0
"dyn_notch_max_hz",600
"dyn_notch_count",1
"dyn_notch_q",500
"dyn_notch_min_hz",150
"dshot_bidir",1
"motor_poles",14
"gyro_rpm_notch_harmonics",3
"gyro_rpm_notch_q",500
"gyro_rpm_notch_min",100
"rpm_filter_fade_range_hz",50
"rpm_notch_lpf",150
"acc_lpf_hz",1000
"acc_hardware",0
"baro_hardware",0
"gyro_cal_on_first_arm",0
"airmode_activate_throttle",25
"serialrx_provider",9
"unsynced_fast_pwm",0
"fast_pwm_protocol",7
"motor_pwm_rate",480
"digitalIdleOffset",550
"debug_mode",50
"features",272891912
"rc_smoothing_mode",1
"rc_smoothing_auto_factor_setpoint",30
"rc_smoothing_auto_factor_throttle",30
"rc_smoothing_feedforward_hz",0
"rc_smoothing_setpoint_hz",0
"rc_smoothing_throttle_hz",0
"rc_smoothing_debug_axis",0
"rc_smoothing_active_cutoffs_ff_sp_thr","187,187,187"
"rc_smoothing_rx_average",2004
"rates_type",3
"fields_disabled_mask",0
"vbat_sag_compensation",0
"dynamic_idle_min_rpm",0
"dyn_idle_p_gain",50
"dyn_idle_i_gain",50
"dyn_idle_d_gain",50
"dyn_idle_max_increase",150
"simplified_pids_mode",2
"simplified_master_multiplier",100
"simplified_i_gain",100
"simplified_d_gain",70
"simplified_pi_gain",70
"simplified_dmax_gain",100
"simplified_feedforward_gain",70
"simplified_pitch_d_gain",100
"simplified_pitch_pi_gain",100
"simplified_dterm_filter",1
"simplified_dterm_filter_multiplier",100
"simplified_gyro_filter",1
"simplified_gyro_filter_multiplier",100
"motor_output_limit",100
"throttle_limit_type",1
"throttle_limit_percent",50
"throttle_boost",5
"throttle_boost_cutoff",15
"loopIteration","time","axisP[0]","axisP[1]","axisP[2]","axisI[0]","axisI[1]","axisI[2]","axisD[0]","axisD[1]","axisF[0]","axisF[1]","axisF[2]","rcCommand[0]","rcCommand[1]","rcCommand[2]","rcCommand[3]","setpoint[0]","setpoint[1]","setpoint[2]","setpoint[3]","vbatLatest","amperageLatest","rssi","gyroADC[0]","gyroADC[1]","gyroADC[2]","accSmooth[0]","accSmooth[1]","accSmooth[2]","debug[0]","debug[1]","debug[2]","debug[3]","motor[0]","motor[1]","motor[2]","motor[3]","flightModeFlags","stateFlags","failsafePhase","rxSignalReceived","rxFlightChannelsValid","heading[0]","heading[1]","heading[2]","axisSum[0]","axisSum[1]","axisSum[2]","rcCommands[0]","rcCommands[1]","rcCommands[2]","rcCommands[3]","axisError[0]","axisError[1]","axisError[2]","motorLegacy[0]","motorLegacy[1]","motorLegacy[2]","motorLegacy[3]"
0,34696670,15,-4,0,0,0,0,0,0,0,0,0,1,1,-1,1000,15,-4,0,0,1614,40,722,0,0,0,-27,-113,2048,-2,-1,0,0,158,175,217,232,"","","","","",-0.05511989153094709,0.013162811359504145,4.396484385773716,15,-4,0,15,-4,0,0,15,-4,0,158,175,217,232
2,34697288,16,-4,0,0,0,0,2,0,0,0,0,1,1,-1,1000,15,-4,0,0,1614,40,722,0,0,0,-27,-113,2048,-2,-1,0,0,158,172,223,237,524291,0,0,1,1,-0.05511989153094708,0.013162811359504143,4.396484385773716,18,-4,0,15,-4,0,0,15,-4,0,158,172,223,237
4,34697906,16,-4,0,0,0,0,3,1,0,0,0,1,1,-1,1000,15,-4,0,0,1614,40,722,-1,0,0,-27,-113,2048,-2,0,0,0,158,170,229,240,524291,0,0,1,1,-0.055127076298497266,0.01316281135967442,4.396484385773716,19,-3,0,15,-4,0,0,16,-4,0,158,170,229,240
6,34698523,16,-3,0,0,0,0,4,1,0,0,0,1,1,-1,1000,15,-4,0,0,1614,40,722,-1,0,0,-28,-115,2048,-1,0,0,0,158,167,233,241,524291,0,0,1,1,-0.055377349884905405,0.013284800267761873,4.396484385773716,20,-2,0,15,-4,0,0,16,-4,0,158,167,233,241
8,34699140,16,-3,0,0,0,0,4,2,0,0,0,1,1,-1,1000,15,-4,0,0,1614,40,722,-1,0,0,-28,-115,2048,0,-1,0,0,158,165,235,241,524291,0,0,1,1,-0.05552965715032431,0.013357991323085702,4.396484385773716,20,-1,0,15,-4,0,0,16,-4,0,158,165,235,241
10,34699761,16,-3,0,0,0,0,4,2,0,0,0,1,1,-1,1000,15,-4,0,0,1614,40,722,-1,-1,0,-28,-116,2046,1,-2,0,0,158,163,235,238,524291,0,0,1,1,-0.05572358753529995,0.013399895957483096,4.396483782072137,20,-1,0,15,-4,0,0,16,-3,0,158,163,235,238
12,34700375,16,-3,0,0,0,0,3,2,0,0,0,1,1,-1,1000,15,-4,0,0,1617,22,722,-1,-1,0,-28,-116,2046,1,-1,0,0,158,163,231,234,524291,0,0,1,1,-0.05586357903707497,0.013428402615635377,4.396483182277845,19,-1,0,15,-4,0,0,16,-3,0,158,163,231,234
14,34700993,16,-3,0,0,0,0,2,2,0,0,0,1,1,-1,1000,15,-4,0,0,1617,22,722,-1,-1,0,-27,-116,2045,1,0,0,0,158,163,227,229,524291,0,0,1,1,-0.05597341372726128,0.013387909231148317,4.396482576670573,18,-1,0,15,-4,0,0,16,-3,0,158,163,227,229
16,34701610,16,-3,0,0,0,0,1,2,0,0,0,1,1,-1,1000,15,-4,0,0,1617,22,722,0,-1,0,-27,-116,2045,1,0,0,0,158,163,221,224,524291,0,0,1,1,-0.056050469943412125,0.013355234328020472,4.396481970854903,17,-1,0,15,-4,0,0,15,-3,0,158,163,221,224
18,34702230,15,-3,0,0,0,0,0,1,0,0,0,1,1,-1,1000,15,-4,0,0,1617,22,722,0,-1,0,-26,-116,2045,1,0,0,0,158,165,215,220,524291,0,0,1,1,-0.05611212618843886,0.01327883583801165,4.396481361275984,15,-2,0,15,-4,0,0,15,-3,0,158,165,215,220
20,34702845,15,-3,0,0,0,0,-2,1,0,0,0,1,1,-1,1000,15,-4,0,0,1617,22,722,1,-1,0,-26,-116,2045,2,-1,0,0,158,167,208,215,524291,0,0,1,1,-0.05615282896670101,0.013215423880560915,4.396480756039972,13,-2,0,15,-4,0,0,14,-3,0,158,167,208,215
22,34703462,14,-3,0,0,0,0,-3,0,0,0,0,1,1,-1,1000,15,-4,0,0,1617,22,722,1,0,0,-26,-113,2046,2,0,0,0,158,169,201,211,524291,0,0,1,1,-0.05606064301696646,0.013171057020188982,4.396480761299083,11,-3,0,15,-4,0,0,14,-4,0,158,169,201,211
24,34704082,14,-3,0,0,0,0,-4,0,0,0,0,1,1,-1,1000,15,-4,0,0,1617,22,722,1,0,0,-26,-113,2046,1,1,0,0,158,171,197,210,524291,0,0,1,1,-0.0559817679272279,0.013133514068295457,4.396480765695033,10,-3,0,15,-4,0,0,14,-4,0,158,171,197,210
26,34704698,14,-4,0,0,0,0,-4,-1,0,0,0,1,1,-1,1000,15,-4,0,0,1617,22,721,1,0,0,-26,-111,2046,1,1,0,0,158,174,196,212,524291,0,0,1,1,-0.0558431124634349,0.013101384698441638,4.396480773955201,10,-5,0,15,-4,0,0,14,-4,0,158,174,196,212
28,34705314,14,-4,0,0,0,0,-4,-1,0,0,0,1,1,-1,1000,15,-4,0,0,1617,22,721,1,0,0,-26,-111,2046,0,1,0,0,158,177,197,217,524291,0,0,1,1,-0.05572223172287131,0.013073538003350616,4.396480781067508,10,-5,0,15,-4,0,0,14,-4,0,158,177,197,217
30,34705933,14,-4,0,0,0,0,-3,-2,0,0,0,1,1,-1,1000,15,-4,0,0,1617,22,721,1,0,0,-29,-108,2046,0,0,0,0,158,179,200,222,524291,0,0,1,1,-0.05552325721885552,0.013141853822534515,4.3964807932144385,11,-6,0,15,-4,0,0,14,-4,0,158,179,200,222
32,34706550,14,-4,0,0,0,0,-2,-2,0,0,0,1,1,-1,1000,15,-4,0,0,1617,22,721,1,0,0,-29,-108,2046,-1,0,0,0,158,180,206,229,524291,0,0,1,1,-0.0553470912045013,0.013202134116137416,4.396480803891372,12,-6,0,15,-4,0,0,14,-4,0,158,180,206,229
34,34707167,15,-4,0,0,0,0,0,-2,0,0,0,1,1,-1,1000,15,-4,0,0,1617,22,721,0,0,0,-33,-108,2046,-2,0,0,0,158,181,213,236,524291,0,0,1,1,-0.055200066932366586,0.013365669925951179,4.396480813377097,15,-6,0,15,-4,0,0,15,-4,0,158,181,213,236
36,34707786,15,-4,0,0,0,0,1,-2,0,0,0,1,1,-1,1000,15,-4,0,0,1617,22,721,0,0,0,-33,-108,2046,-1,0,0,0,158,181,219,243,524291,0,0,1,1,-0.055068515550725144,0.013511994314196514,4.39648082186456,16,-6,0,15,-4,0,0,15,-4,0,158,181,219,243
38,34708402,16,-4,0,0,0,0,2,-2,0,0,0,1,1,-1,1000,15,-4,0,0,1617,22,721,0,1,0,-35,-108,2046,-1,0,0,0,158,181,225,248,524291,0,0,1,1,-0.054950124339891666,0.01370343966552175,4.396481420040515,18,-6,0,15,-4,0,0,15,-5,0,158,181,225,248
40,34709019,16,-4,0,0,0,0,3,-2,0,0,0,1,1,-1,1000,15,-4,0,0,1617,22,721,-1,0,0,-35,-108,2046,-1,-1,0,0,158,180,230,251,524291,0,0,1,1,-0.05485324674898686,0.013866941596446209,4.396481425829154,19,-6,0,15,-4,0,0,16,-4,0,158,180,230,251
42,34709636,16,-4,0,0,0,0,3,-1,0,0,0,1,1,-1,1000,15,-4,0,0,1617,22,721,-1,0,0,-36,-109,2047,0,-1,0,0,158,177,233,250,524291,0,0,1,1,-0.054786956009587884,0.014037813132469932,4.396481429970747,19,-5,0,15,-4,0,0,16,-4,0,158,177,233,250
44,34710262,16,-4,0,0,0,0,3,0,0,0,0,1,1,-1,1000,15,-4,0,0,1617,22,721,-1,0,0,-36,-109,2047,0,0,0,0,158,174,233,247,524291,0,0,1,1,-0.054727041601129504,0.01419382032485046,4.396481433778085,19,-4,0,15,-4,0,0,16,-4,0,158,174,233,247
46,34710872,16,-4,0,0,0,0,3,0,0,0,0,1,1,-1,1000,15,-4,0,0,1617,22,721,-1,0,0,-34,-109,2046,-1,0,0,0,158,172,232,243,524291,0,0,1,1,-0.054673433497692,0.014295680879594702,4.396481437233125,19,-4,0,15,-4,0,0,16,-4,0,158,172,232,243
48,34711489,16,-3,0,0,0,0,2,1,0,0,0,1,1,-1,1000,15,-4,0,0,1617,22,721,-1,0,0,-34,-109,2046,0,-1,0,0,158,168,230,237,524291,0,0,1,1,-0.05462464807636198,0.014389393158100228,4.396481440435435,18,-2,0,15,-4,0,0,16,-4,0,158,168,230,237
50,34712109,16,-3,0,0,0,0,2,2,0,0,0,1,1,-1,1000,15,-4,0,0,1617,22,721,-1,-1,0,-30,-108,2047,0,-2,0,0,158,165,226,230,524291,0,0,1,1,-0.05455988541094595,0.014388628514036958,4.396480854340771,18,-1,0,15,-4,0,0,16,-3,0,158,165,226,230
52,34712725,16,-3,0,0,0,0,1,2,0,0,0,1,1,-1,1000,15,-4,0,0,1617,22,721,-1,-1,0,-30,-108,2047,0,-2,0,0,158,162,223,225,524291,0,0,1,1,-0.05450024659198884,0.014387595835452792,4.396480273174807,17,-1,0,15,-4,0,0,16,-3,0,158,162,223,225
54,34713342,16,-3,0,0,0,0,0,2,0,0,0,1,1,-1,1000,15,-4,0,0,1617,22,721,0,-1,0,-26,-106,2047,0,-1,0,0,158,161,219,220,524291,0,0,1,1,-0.05439929651298034,0.014315003148144505,4.396479695207708,16,-1,0,15,-4,0,0,15,-3,0,158,161,219,220
56,34713962,15,-3,0,0,0,0,-1,2,0,0,0,1,1,-1,1000,15,-4,0,0,1617,22,721,0,-1,0,-26,-106,2047,1,0,0,0,158,160,214,216,524291,0,0,1,1,-0.05430531053289245,0.014247005499507708,4.396479115895458,14,-1,0,15,-4,0,0,15,-3,0,158,160,214,216
58,34714577,15,-3,0,0,0,0,-1,2,0,0,0,1,1,-1,1000,15,-4,0,0,1617,22,721,0,-1,-1,-24,-103,2044,1,0,0,0,158,160,211,214,524291,0,0,1,1,-0.054170537984797255,0.014150142480970919,4.3964892668573885,14,-1,0,15,-4,0,0,15,-3,1,158,160,211,214
60,34715194,15,-3,0,0,0,0,-2,2,0,0,0,1,1,-1,1000,15,-4,0,0,1617,22,721,0,-1,0,-24,-103,2044,0,0,0,0,158,163,209,215,524291,0,0,1,1,-0.05404430763949317,0.01405969575589067,4.396488698754216,13,-1,0,15,-4,0,0,15,-3,0,158,163,209,215
62,34715814,15,-3,0,0,0,0,-2,1,0,0,0,1,1,-1,1000,15,-4,0,0,1617,22,721,0,0,-1,-25,-101,2041,0,1,0,0,158,167,206,217,524291,0,0,1,1,-0.053897393056651983,0.014000735032403252,4.396499522638084,13,-2,0,15,-4,0,0,15,-4,1,158,167,206,217
64,34716429,15,-4,0,0,0,0,-2,0,0,0,0,1,1,-1,1000,15,-4,0,0,1617,22,721,1,0,0,-25,-101,2041,1,2,0,0,158,172,205,221,524291,0,0,1,1,-0.05374881689029877,0.013945887624395538,4.396499539109223,13,-4,0,15,-4,0,0,14,-4,0,158,172,205,221
66,34717047,15,-4,0,0,0,0,-2,-1,0,0,0,1,1,-1,1000,15,-4,0,0,1617,22,720,0,0,0,-29,-100,2038,0,2,0,0,158,177,207,228,524291,0,0,1,1,-0.05360670220467124,0.013953891271170787,4.39649955610434,13,-5,0,15,-4,0,0,15,-4,0,158,177,207,228
68,34717667,15,-4,0,0,0,0,-1,-2,0,0,0,1,1,-1,1000,15,-4,0,0,1617,22,720,0,0,0,-29,-100,2038,0,1,0,0,158,181,209,233,524291,0,0,1,1,-0.05347267798887748,0.013961439017235781,4.396499572131662,14,-6,0,15,-4,0,0,15,-4,0,158,181,209,233
70,34718288,15,-4,0,0,0,0,-1,-3,0,0,0,1,1,-1,1000,15,-4,0,0,1617,22,720,0,1,0,-32,-99,2036,0,0,0,0,158,185,210,237,524291,0,0,1,1,-0.05333362758943871,0.014021360363029136,4.396500166608525,14,-7,0,15,-4,0,0,15,-5,0,158,185,210,237
72,34718898,15,-5,0,0,0,0,-1,-3,0,0,0,1,1,-1,1000,15,-4,0,0,1617,22,720,0,1,0,-32,-99,2036,0,0,0,0,158,189,213,243,524291,0,0,1,1,-0.053202059924350384,0.01407815298110368,4.396500747132075,14,-8,0,15,-4,0,0,15,-5,0,158,189,213,243
74,34719516,15,-5,0,0,0,0,0,-4,0,0,0,1,1,-1,1000,15,-4,0,0,1617,22,720,0,1,0,-33,-97,2035,0,1,0,0,158,192,216,248,524291,0,0,1,1,-0.053051623073226396,0.014145831316424908,4.3965013339162295,15,-9,0,15,-4,0,0,15,-5,0,158,192,216,248
76,34720136,15,-5,0,0,0,0,0,-4,0,0,0,1,1,-1,1000,15,-4,0,0,1617,22,720,0,1,0,-33,-97,2035,0,1,0,0,158,191,218,249,524291,0,0,1,1,-0.05290886477041227,0.01421035510414614,4.396501918717483,15,-9,0,15,-4,0,0,15,-5,0,158,191,218,249
78,34720752,15,-5,0,0,0,0,1,-3,0,0,0,1,1,-1,1000,15,-4,0,0,1617,40,720,0,1,0,-30,-98,2033,-1,0,0,0,158,188,221,248,524291,0,0,1,1,-0.05278713906040108,0.014234375114512499,4.396502495357128,16,-8,0,15,-4,0,0,15,-5,0,158,188,221,248
80,34721369,15,-4,0,0,0,0,1,-2,0,0,0,1,1,-1,1000,15,-4,0,0,1617,40,720,0,1,0,-30,-98,2033,0,-2,0,0,158,183,221,244,524291,0,0,1,1,-0.05267131950007318,0.014257498293080102,4.39650306997629,16,-6,0,15,-4,0,0,15,-5,0,158,183,221,244
82,34721988,16,-4,0,0,0,0,1,-1,0,0,0,1,1,-1,1000,15,-4,0,0,1617,40,720,0,0,0,-25,-98,2031,-1,-2,0,0,158,177,222,239,524291,0,0,1,1,-0.05256224344798121,0.014209452982118608,4.3965030759659465,17,-5,0,15,-4,0,0,15,-4,0,158,177,222,239
84,34722603,16,-4,0,0,0,0,1,1,0,0,0,1,1,-1,1000,15,-4,0,0,1617,40,720,-1,0,0,-25,-98,2031,-1,-1,0,0,158,170,224,236,524291,0,0,1,1,-0.052468687051364815,0.014163628666069994,4.396503081692652,17,-3,0,15,-4,0,0,16,-4,0,158,170,224,236
86,34723221,16,-3,0,0,0,0,2,2,0,0,0,1,1,-1,1000,15,-4,0,0,1617,40,720,-1,0,0,-20,-98,2029,0,-1,0,0,158,164,224,231,524291,0,0,1,1,-0.05238084867572517,0.014062649555142977,4.39650308709284,18,-1,0,15,-4,0,0,16,-4,0,158,164,224,231
88,34723838,16,-3,0,0,0,0,1,3,0,0,0,1,1,-1,1000,15,-4,0,0,1617,40,720,-1,-1,-1,-20,-98,2029,0,-1,0,0,158,159,223,225,524291,0,0,1,1,-0.05229724037555156,0.01395506928343407,4.396513284305398,17,0,0,15,-4,0,0,16,-3,1,158,159,223,225
90,34724456,16,-3,0,0,0,0,1,3,0,0,0,1,1,-1,1000,15,-4,0,0,1617,40,720,-1,-1,-1,-18,-100,2028,0,-1,0,0,161,158,227,225,524291,0,0,1,1,-0.052240099342668954,0.01382995732082395,4.396523497960881,17,0,0,15,-4,0,0,16,-3,1,161,158,227,225
92,34725073,16,-3,0,0,0,0,1,4,0,0,0,1,1,-1,1000,15,-4,0,0,1617,40,720,-1,-1,-1,-18,-100,2028,0,0,0,0,164,158,228,225,524291,0,0,1,1,-0.05218557691741516,0.013709921068062228,4.396533696250399,17,1,0,15,-4,0,0,16,-3,1,164,158,228,225
94,34725690,16,-3,0,0,0,0,1,4,0,0,0,1,1,-1,1000,15,-4,0,0,1617,40,720,0,-1,0,-18,-100,2028,0,0,0,0,164,158,225,221,524291,0,0,1,1,-0.05212284580598459,0.013595178292003032,4.3965331406693755,17,1,0,15,-4,0,0,15,-3,0,164,158,225,221
96,34726316,16,-3,0,0,0,0,0,3,0,0,0,1,1,-1,1000,15,-4,0,0,1617,40,720,0,-1,0,-18,-102,2027,0,0,0,0,161,158,220,219,524291,0,0,1,1,-0.05208394755957745,0.013484850876767367,4.3965325756308555,16,0,0,15,-4,0,0,15,-3,0,161,158,220,219
98,34726926,15,-3,0,0,0,0,0,2,0,0,0,1,1,-1,1000,15,-4,0,0,1617,40,720,0,-1,0,-18,-102,2027,0,1,0,0,158,161,215,219,524291,0,0,1,1,-0.052046594931116706,0.013378971928778734,4.396532025786885,15,-1,0,15,-4,0,0,15,-3,0,158,161,215,219
100,34727543,15,-3,0,0,0,0,-1,1,0,0,0,1,1,-1,1000,15,-4,0,0,1617,40,720,0,0,0,-21,-103,2027,2,1,0,0,158,167,211,220,524291,0,0,1,1,-0.05202069140102707,0.013317423966690242,4.3965320288890055,14,-2,0,15,-4,0,0,15,-4,0,158,167,211,220
102,34728163,15,-4,0,0,0,0,-2,0,0,0,0,1,1,-1,1000,15,-4,0,0,1617,40,720,0,0,1,-21,-103,2027,1,1,0,0,158,173,210,223,524291,0,0,1,1,-0.051995636772427196,0.013258779540833843,4.396521224505518,13,-4,0,15,-4,0,0,15,-4,-1,158,173,210,223
104,34728779,15,-4,0,0,0,0,-2,-1,0,0,0,1,1,-1,1000,15,-4,0,0,1617,40,719,0,0,1,-23,-103,2027,0,2,0,0,158,180,210,229,524291,0,0,1,1,-0.051971520685647796,0.013221619648326946,4.396510489730872,13,-5,0,15,-4,0,0,15,-4,-1,158,180,210,229
106,34729396,15,-4,-1,0,0,0,-2,-3,0,0,0,1,1,-1,1000,15,-4,0,0,1617,40,719,1,1,1,-23,-103,2027,1,2,0,0,158,186,209,233,524291,0,0,1,1,-0.05193773551620955,0.013196385441816809,4.396500296470509,13,-7,-1,15,-4,0,0,14,-5,-1,158,186,209,233
108,34730016,15,-5,-1,0,0,0,-2,-3,0,0,0,1,1,-1,1000,15,-4,0,0,1617,40,719,1,1,1,-26,-101,2025,0,1,0,0,158,191,209,237,524291,0,0,1,1,-0.051887305895854274,0.013200490115595896,4.396490054619033,13,-8,-1,15,-4,0,0,14,-5,-1,158,191,209,237
110,34730632,15,-5,-1,0,0,0,-2,-4,0,0,0,1,1,-1,1000,15,-4,0,0,1617,40,719,0,1,1,-26,-101,2025,-1,-1,0,0,158,192,211,240,524291,0,0,1,1,-0.05184910080428226,0.013204569117106407,4.396479877855129,13,-9,-1,15,-4,0,0,15,-5,-1,158,192,211,240
112,34731248,15,-5,-1,0,0,0,-1,-3,0,0,0,1,1,-1,1000,15,-4,0,0,1617,40,719,1,1,0,-27,-99,2023,0,-1,0,0,158,190,211,240,524291,0,0,1,1,-0.051784767187072055,0.013217393307316283,4.396480439022859,14,-8,-1,15,-4,0,0,14,-5,0,158,190,211,240
114,34731868,15,-5,0,0,0,0,-1,-3,0,0,0,1,1,-1,1000,15,-4,0,0,1617,40,719,0,1,0,-27,-99,2023,1,0,0,0,158,188,212,239,524291,0,0,1,1,-0.05173301870671699,0.013230022013349286,4.396481002531628,14,-8,0,15,-4,0,0,15,-5,0,158,188,212,239
116,34732485,15,-4,0,0,0,0,0,-2,0,0,0,1,1,-1,1000,15,-4,0,0,1617,40,719,0,1,0,-28,-98,2021,0,0,0,0,158,183,215,238,524291,0,0,1,1,-0.051675212279082124,0.013251293105335807,4.396481562542895,15,-6,0,15,-4,0,0,15,-5,0,158,183,215,238
118,34733100,15,-4,0,0,0,0,0,-1,0,0,0,1,1,-1,1000,15,-4,0,0,1617,40,719,0,0,-1,-28,-98,2021,0,0,0,0,158,176,216,234,524291,0,0,1,1,-0.051619449346702276,0.01326091739485365,4.3964922859748965,15,-5,0,15,-4,0,0,15,-4,1,158,176,216,234
120,34733720,15,-4,0,0,0,0,0,0,0,0,0,1,1,-1,1000,15,-4,0,0,1617,40,719,0,0,-1,-28,-99,2020,0,-1,0,0,158,170,216,229,524291,0,0,1,1,-0.05157436904860715,0.013270322320125734,4.396503096042278,15,-4,0,15,-4,0,0,15,-4,1,158,170,216,229
122,34734336,16,-3,0,0,0,0,1,1,0,0,0,1,1,-1,1000,15,-4,0,0,1617,40,719,0,0,-1,-28,-99,2020,-2,-1,0,0,158,164,218,228,524291,0,0,1,1,-0.05153073217363551,0.013279421911222998,4.396513836355795,17,-2,0,15,-4,0,0,15,-4,1,158,164,218,228
124,34734953,16,-3,0,0,0,0,1,2,0,0,0,1,1,-1,1000,15,-4,0,0,1617,40,719,0,0,-1,-29,-102,2021,-1,-1,0,0,158,160,220,225,524291,0,0,1,1,-0.051512586142693204,0.013296288838005498,4.3965245927262995,17,-1,0,15,-4,0,0,15,-4,1,158,160,220,225
126,34735570,15,-3,0,0,0,0,1,3,0,0,0,1,1,-1,1000,15,-4,0,0,1617,40,719,0,-1,-1,-29,-102,2021,0,-1,0,0,159,158,220,222,524291,0,0,1,1,-0.051494997875809995,0.013302045833278292,4.396534794752361,16,0,0,15,-4,0,0,15,-3,1,159,158,220,222
128,34736190,16,-3,0,0,0,0,1,3,0,0,0,1,1,-1,1000,15,-4,0,0,1617,40,719,0,-1,0,-28,-104,2021,0,-1,0,0,161,158,224,224,524291,0,0,1,1,-0.051493692240887845,0.013299995577859826,4.396534237827273,17,0,0,15,-4,0,0,15,-3,0,161,158,224,224
130,34736805,16,-3,0,0,0,0,2,3,0,0,0,1,1,-1,1000,15,-4,0,0,1617,40,719,0,-1,0,-28,-104,2021,0,-1,0,0,161,158,226,224,524291,0,0,1,1,-0.051492425845734734,0.013297939061556229,4.396533685418705,18,0,0,15,-4,0,0,15,-3,0,161,158,226,224
132,34737422,16,-3,0,0,0,0,1,3,0,0,0,1,1,-1,1000,15,-4,0,0,1617,40,719,0,-1,0,-28,-105,2021,1,0,0,0,159,158,222,221,524291,0,0,1,1,-0.051498916292195836,0.013295753810693577,4.396533130467081,17,0,0,15,-4,0,0,15,-3,0,159,158,222,221
134,34738043,16,-3,0,0,0,0,1,2,0,0,0,1,1,-1,1000,15,-4,0,0,1617,40,719,0,-1,1,-28,-105,2021,1,1,0,0,158,161,220,221,524291,0,0,1,1,-0.051505075392110196,0.013293964809697805,4.396521746723624,17,-1,0,15,-4,0,0,15,-3,-1,158,161,220,221
136,34738658,15,-3,0,0,0,0,0,2,0,0,0,1,1,-1,1000,15,-4,0,0,1617,40,719,0,-1,1,-28,-105,2020,0,1,0,0,158,165,219,223,524291,0,0,1,1,-0.051511443724846465,0.013292285500348583,4.396510472808595,15,-1,0,15,-4,0,0,15,-3,-1,158,165,219,223
138,34739275,15,-3,-1,0,0,0,0,1,0,0,0,1,1,-1,1000,15,-4,0,0,1617,40,719,0,-1,1,-28,-105,2020,1,0,0,0,158,169,217,223,524291,0,0,1,1,-0.05151762891004947,0.013290485455239951,4.3964991621242735,15,-2,-1,15,-4,0,0,15,-3,-1,158,169,217,223
140,34739894,15,-3,-1,0,0,0,-1,0,0,0,0,1,1,-1,1000,15,-4,0,0,1617,40,719,0,0,1,-29,-103,2021,0,0,0,0,158,173,215,225,524291,0,0,1,1,-0.051508645303044345,0.013306431358290419,4.396488373064725,14,-3,-1,15,-4,0,0,15,-4,-1,158,173,215,225
142,34740510,15,-4,-1,0,0,0,-1,-1,0,0,0,1,1,-1,1000,15,-4,0,0,1617,40,719,0,0,1,-29,-103,2021,0,1,0,0,158,178,214,229,524291,0,0,1,1,-0.05149990833988739,0.013321941542863657,4.396477636254076,14,-5,-1,15,-4,0,0,15,-4,-1,158,178,214,229
144,34741127,15,-4,-1,0,0,0,-1,-2,0,0,0,1,1,-1,1000,15,-4,0,0,1617,40,719,0,0,0,-29,-101,2023,0,1,0,0,158,182,213,232,524291,0,0,1,1,-0.051476565174945525,0.013336310697999626,4.3964776392690865,14,-6,-1,15,-4,0,0,15,-4,0,158,182,213,232
146,34741747,15,-4,0,0,0,0,-1,-2,0,0,0,1,1,-1,1000,15,-4,0,0,1617,40,719,0,0,0,-29,-101,2023,0,1,0,0,158,184,211,234,524291,0,0,1,1,-0.05145384974714561,0.013350293430015418,4.396477642203021,14,-6,0,15,-4,0,0,15,-4,0,158,184,211,234
148,34742363,15,-4,0,0,0,0,-1,-3,0,0,0,1,1,-1,1000,15,-4,0,0,1617,40,719,0,1,0,-29,-101,2024,0,0,0,0,158,185,211,237,524291,0,0,1,1,-0.051431386775096566,0.013374397917913514,4.396478197861538,14,-7,0,15,-4,0,0,15,-5,0,158,185,211,237
150,34742980,15,-4,0,0,0,0,-1,-3,0,0,0,1,1,-1,1000,15,-4,0,0,1617,40,719,0,1,-1,-29,-101,2024,0,0,0,0,158,185,211,238,524291,0,0,1,1,-0.05140965447112871,0.013397473925449257,4.396489509291018,14,-7,0,15,-4,0,0,15,-5,1,158,185,211,238
152,34743598,15,-4,0,0,0,0,-1,-3,0,0,0,1,1,-1,1000,15,-4,0,0,1617,40,719,0,1,-1,-30,-104,2024,0,1,0,0,158,185,211,239,524291,0,0,1,1,-0.051408822004695084,0.013426865291292394,4.396500836561441,14,-7,0,15,-4,0,0,15,-5,1,158,185,211,239
154,34744218,15,-4,0,0,0,0,0,-2,0,0,0,1,1,-1,1000,15,-4,0,0,1617,40,719,0,1,-1,-30,-104,2024,0,1,0,0,158,183,212,239,524291,0,0,1,1,-0.05140801342748354,0.013455660720056923,4.396512200475927,15,-6,0,15,-4,0,0,15,-5,1,158,183,212,239
156,34744832,15,-4,0,0,0,0,0,-2,0,0,0,1,1,-1,1000,15,-4,0,0,1617,40,719,0,1,-1,-32,-107,2023,-1,0,0,0,158,180,214,239,524291,0,0,1,1,-0.051427422138111786,0.013497080614220287,4.3965234528438355,15,-6,0,15,-4,0,0,15,-5,1,158,180,214,239
158,34745450,15,-4,0,0,0,0,0,-1,0,0,0,1,1,-1,1000,15,-4,0,0,1617,40,719,0,1,0,-32,-107,2023,0,-1,0,0,158,177,215,237,524291,0,0,1,1,-0.05144620729608339,0.01353819948418411,4.396524006113494,15,-5,0,15,-4,0,0,15,-5,0,158,177,215,237
160,34746068,15,-4,0,0,0,0,1,0,0,0,0,1,1,-1,1000,15,-4,0,0,1617,40,719,0,0,0,-31,-112,2024,-1,-1,0,0,158,174,217,235,524291,0,0,1,1,-0.051496522642646925,0.013561216003648974,4.396524002760625,16,-4,0,15,-4,0,0,15,-4,0,158,174,217,235
162,34746685,16,-4,0,0,0,0,1,0,0,0,0,1,1,-1,1000,15,-4,0,0,1617,40,719,0,0,0,-31,-112,2024,-1,0,0,0,158,171,221,234,524291,0,0,1,1,-0.051545614898210135,0.013583672978933007,4.3965239994891805,17,-4,0,15,-4,0,0,15,-4,0,158,171,221,234
164,34747303,16,-4,0,0,0,0,1,1,0,0,0,1,1,-1,1000,15,-4,0,0,1617,40,719,0,0,0,-29,-115,2027,-1,-1,0,0,158,167,223,232,524291,0,0,1,1,-0.051611513359665934,0.013592661635091714,4.396523995086214,17,-3,0,15,-4,0,0,15,-4,0,158,167,223,232
166,34747923,16,-3,0,0,0,0,2,2,0,0,0,1,1,-1,1000,15,-4,0,0,1617,40,719,0,0,0,-29,-115,2027,0,-1,0,0,158,164,224,229,524291,0,0,1,1,-0.05167584523280778,0.013601436547033153,4.396523990787754,18,-1,0,15,-4,0,0,15,-4,0,158,164,224,229
168,34748537,16,-3,0,0,0,0,2,2,0,0,0,1,1,-1,1000,15,-4,0,0,1617,40,719,-1,-1,0,-26,-116,2029,0,-2,0,0,158,161,226,227,524291,0,0,1,1,-0.051754782465123474,0.01358069427299211,4.396523431793752,18,-1,0,15,-4,0,0,16,-3,0,158,161,226,227
170,34749155,16,-3,0,0,0,0,1,3,0,0,0,1,1,-1,1000,15,-4,0,0,1617,40,719,0,-1,0,-26,-116,2029,0,-2,0,0,158,158,225,223,524291,0,0,1,1,-0.05182141724550755,0.013560249741257344,4.39652286786311,17,0,0,15,-4,0,0,15,-3,0,158,158,225,223
172,34749774,16,-3,0,0,0,0,1,3,0,0,0,1,1,-1,1000,15,-4,0,0,1617,40,719,0,-1,0,-26,-116,2029,1,-1,0,0,159,158,224,220,524291,0,0,1,1,-0.05188652051727242,0.013540142915363963,4.396522301743546,17,0,0,15,-4,0,0,15,-3,0,159,158,224,220
174,34750390,16,-3,0,0,0,0,1,3,0,0,0,1,1,-1,1000,15,-4,0,0,1617,40,719,0,-1,0,-24,-115,2030,0,0,0,0,159,158,222,219,524291,0,0,1,1,-0.05194384584132431,0.013508365626395524,4.396521737787117,17,0,0,15,-4,0,0,15,-3,0,159,158,222,219
176,34751008,15,-3,0,0,0,0,0,3,0,0,0,1,1,-1,1000,15,-4,0,0,1617,40,719,0,-1,0,-24,-115,2030,1,0,0,0,158,158,217,216,524291,0,0,1,1,-0.05199988242319624,0.013477156369239053,4.396521170941112,15,0,0,15,-4,0,0,15,-3,0,158,158,217,216
178,34751625,15,-3,0,0,0,0,-1,2,0,0,0,1,1,-1,1000,15,-4,0,0,1617,40,719,0,-1,0,-25,-114,2032,1,1,0,0,158,160,214,215,524291,0,0,1,1,-0.052048198334501854,0.01345226440985234,4.39652060481411,14,-1,0,15,-4,0,0,15,-3,0,158,160,214,215
180,34752244,15,-3,0,0,0,0,-1,1,0,0,0,1,1,-1,1000,15,-4,0,0,1617,40,719,0,-1,0,-25,-114,2032,0,1,0,0,158,164,212,218,524291,0,0,1,1,-0.0520954507133098,0.013427776370700991,4.396520035981586,14,-2,0,15,-4,0,0,15,-3,0,158,164,212,218
182,34752859,15,-3,0,0,0,0,-2,0,0,0,0,1,1,-1,1000,15,-4,0,0,1617,40,719,0,0,0,-27,-112,2035,1,2,0,0,158,169,208,220,524291,0,0,1,1,-0.05212929094446791,0.013425657128137206,4.396520031167497,13,-3,0,15,-4,0,0,15,-4,0,158,169,208,220
184,34753476,15,-4,0,0,0,0,-2,-1,0,0,0,1,1,-1,1000,15,-4,0,0,1617,40,719,1,0,0,-27,-112,2035,0,2,0,0,158,176,206,225,524291,0,0,1,1,-0.05215175754674616,0.013423583589134397,4.396520026439432,13,-5,0,15,-4,0,0,14,-4,0,158,176,206,225
186,34754096,15,-4,0,0,0,0,-2,-2,0,0,0,1,1,-1,1000,15,-4,0,0,1617,40,719,1,0,0,-30,-111,2040,0,1,0,0,158,182,206,231,524291,0,0,1,1,-0.05216648409120898,0.013438096848150071,4.396520022812786,13,-6,0,15,-4,0,0,14,-4,0,158,182,206,231
188,34754712,15,-4,0,0,0,0,-2,-3,0,0,0,1,1,-1,1000,15,-4,0,0,1617,40,719,1,1,0,-30,-111,2040,1,1,0,0,158,187,206,235,524291,0,0,1,1,-0.05218086967807618,0.013462916926011858,4.396520580050037,13,-7,0,15,-4,0,0,14,-5,0,158,187,206,235
190,34755329,15,-5,0,0,0,0,-2,-4,0,0,0,1,1,-1,1000,15,-4,0,0,1617,40,719,1,1,0,-32,-111,2042,0,1,0,0,158,191,208,240,524291,0,0,1,1,-0.052194255842950475,0.01349824851747389,4.396521138746139,13,-9,0,15,-4,0,0,14,-5,0,158,191,208,240
192,34755946,15,-5,0,0,0,0,-1,-4,0,0,0,1,1,-1,1000,15,-4,0,0,1617,40,719,1,1,0,-32,-111,2042,-1,2,0,0,158,195,211,246,524291,0,0,1,1,-0.052207261356983274,0.013532949446300431,4.396521697887916,14,-9,0,15,-4,0,0,14,-5,0,158,195,211,246
194,34756564,15,-5,0,0,0,0,-1,-4,0,0,0,1,1,-1,1000,15,-4,0,0,1617,40,719,0,1,1,-32,-111,2042,-1,1,0,0,158,195,214,249,524291,0,0,1,1,-0.05223040293768395,0.013567612855046846,4.396511486083513,14,-9,0,15,-4,0,0,15,-5,-1,158,195,214,249
196,34757181,15,-5,0,0,0,0,0,-4,0,0,0,1,1,-1,1000,15,-4,0,0,1617,40,719,0,1,1,-32,-111,2042,-1,-1,0,0,158,193,219,250,524291,0,0,1,1,-0.052253072459086045,0.013601659275333241,4.39650129135776,15,-9,0,15,-4,0,0,15,-5,-1,158,193,219,250
198,34757802,16,-5,-1,0,0,0,1,-3,0,0,0,1,1,-1,1000,15,-4,0,0,1617,40,719,0,1,1,-30,-113,2043,-2,-3,0,0,158,187,223,249,524291,0,0,1,1,-0.0522856418367822,0.013624467808808199,4.396491030309766,17,-8,-1,15,-4,0,0,15,-5,-1,158,187,223,249
200,34758417,16,-4,0,0,0,0,2,-1,0,0,0,1,1,-1,1000,15,-4,0,0,1617,40,719,0,1,0,-30,-113,2043,-1,-2,0,0,158,181,226,245,524291,0,0,1,1,-0.05231770600263783,0.013646262139267803,4.3964915892387655,18,-5,0,15,-4,0,0,15,-5,0,158,181,226,245
202,34759034,16,-4,0,0,0,0,2,0,0,0,0,1,1,-1,1000,15,-4,0,0,1617,40,719,-1,0,0,-25,-114,2045,0,-1,0,0,158,173,228,240,524291,0,0,1,1,-0.05236445758833669,0.013630830749100447,4.3964915868902565,18,-4,0,15,-4,0,0,16,-4,0,158,173,228,240
204,34759651,16,-3,0,0,0,0,2,2,0,0,0,1,1,-1,1000,15,-4,0,0,1617,40,719,-1,0,0,-25,-114,2045,0,-1,0,0,158,164,229,233,524291,0,0,1,1,-0.0524103903335342,0.013615701473719342,4.39649158459518,18,-1,0,15,-4,0,0,16,-4,0,158,164,229,233
206,34760272,16,-3,0,0,0,0,2,4,0,0,0,1,1,-1,1000,15,-4,0,0,1624,40,719,-1,-1,0,-21,-113,2048,1,-2,0,0,161,158,230,226,524291,0,0,1,1,-0.052449652147166376,0.013569408807463495,4.396491014470197,18,1,0,15,-4,0,0,16,-3,0,161,158,230,226
208,34760887,16,-2,0,0,0,0,2,5,0,0,0,1,1,-1,1000,15,-4,0,0,1624,32,719,0,-1,-1,-21,-113,2048,1,-2,0,0,167,158,232,224,524291,0,0,1,1,-0.05247767256753179,0.013523458045197546,4.396501169250219,18,3,0,15,-4,0,0,15,-3,1,167,158,232,224
210,34761505,16,-2,0,0,0,0,1,5,0,0,0,1,1,-1,1000,15,-4,0,0,1624,32,719,0,-1,-1,-20,-112,2051,1,-1,0,0,170,158,231,221,524291,0,0,1,1,-0.052499326060550106,0.013472983790621798,4.3965113735593,17,3,0,15,-4,0,0,15,-3,1,170,158,231,221
212,34762124,15,-2,0,0,0,0,0,5,0,0,0,1,1,-1,1000,15,-4,0,0,1624,32,719,0,-2,-1,-20,-112,2051,2,0,0,0,170,158,225,216,524291,0,0,1,1,-0.05252056343282339,0.013412669647508084,4.396521026725634,15,3,0,15,-4,0,0,15,-2,1,170,158,225,216
214,34762740,15,-2,0,0,0,0,-1,4,0,0,0,1,1,-1,1000,15,-4,0,0,1624,32,719,0,-1,0,-24,-112,2054,2,1,0,0,167,158,217,211,524291,0,0,1,1,-0.052540486607243045,0.013384227306364455,4.396520459643276,14,2,0,15,-4,0,0,15,-3,0,167,158,217,211
216,34763356,15,-3,0,0,0,0,-2,3,0,0,0,1,1,-1,1000,15,-4,0,0,1624,32,719,1,-1,0,-24,-112,2054,1,1,0,0,161,158,208,207,524291,0,0,1,1,-0.05254939700133631,0.013356222650116911,4.396519892286209,13,0,0,15,-4,0,0,14,-3,0,161,158,208,207
218,34763977,14,-3,0,0,0,0,-3,2,0,0,0,1,1,-1,1000,15,-4,0,0,1624,32,719,1,-1,0,-31,-113,2056,1,1,0,0,158,162,201,206,524291,0,0,1,1,-0.05256232467855499,0.013362558278782938,4.396519319426423,11,-1,0,15,-4,0,0,14,-3,0,158,162,201,206
220,34764592,14,-3,0,0,0,0,-3,0,0,0,0,1,1,-1,1000,15,-4,0,0,1624,32,719,1,0,0,-31,-113,2056,1,2,0,0,158,170,199,212,524291,0,0,1,1,-0.052575037270776795,0.013379403968684365,4.39651931584425,11,-3,0,15,-4,0,0,14,-4,0,158,170,199,212
222,34765209,14,-4,0,0,0,0,-3,-2,0,0,0,1,1,-1,1000,15,-4,0,0,1624,32,719,1,0,0,-37,-115,2056,-1,3,0,0,158,179,201,221,524291,0,0,1,1,-0.05259697727684496,0.013424713825419678,4.396519310857282,11,-6,0,15,-4,0,0,14,-4,0,158,179,201,221
224,34765829,14,-4,0,0,0,0,-2,-3,0,0,0,1,1,-1,1000,15,-4,0,0,1624,32,719,1,1,1,-37,-115,2056,-1,2,0,0,158,188,204,232,524291,0,0,1,1,-0.05261824780631919,0.013480473984051042,4.396509068071333,12,-7,0,15,-4,0,0,14,-5,-1,158,188,204,232
226,34766443,15,-5,0,0,0,0,-2,-4,0,0,0,1,1,-1,1000,15,-4,0,0,1624,32,719,1,1,1,-40,-117,2055,-1,0,0,0,158,195,209,242,524291,0,0,1,1,-0.05264883012745458,0.013549437986495584,4.396498923756632,13,-9,0,15,-4,0,0,14,-5,-1,158,195,209,242
228,34767061,15,-5,0,0,0,0,0,-5,0,0,0,1,1,-1,1000,15,-4,0,0,1624,32,719,0,1,1,-40,-117,2055,-1,0,0,0,158,198,215,251,524291,0,0,1,1,-0.05268939833536252,0.013617349627525753,4.396488714397713,15,-10,0,15,-4,0,0,15,-5,-1,158,198,215,251
230,34767679,15,-5,-1,0,0,0,1,-5,0,0,0,1,1,-1,1000,15,-4,0,0,1624,32,719,0,1,0,-38,-120,2055,-2,0,0,0,158,199,222,259,524291,0,0,1,1,-0.05274331614894365,0.013674304550706368,4.3964892766633366,16,-10,-1,15,-4,0,0,15,-5,0,158,199,222,259
232,34768298,16,-5,0,0,0,0,2,-5,0,0,0,1,1,-1,1000,15,-4,0,0,1624,32,719,0,1,0,-38,-120,2055,-1,1,0,0,158,197,228,263,524291,0,0,1,1,-0.05279630016223591,0.013730374471489627,4.396489841103494,18,-10,0,15,-4,0,0,15,-5,0,158,197,228,263
234,34768914,16,-5,0,0,0,0,3,-4,0,0,0,1,1,-1,1000,15,-4,0,0,1624,32,719,-1,1,0,-32,-122,2054,-1,0,0,0,158,191,232,263,524291,0,0,1,1,-0.05286839824896605,0.01375813945789184,4.396490403308358,19,-9,0,15,-4,0,0,16,-5,0,158,191,232,263
236,34769531,16,-4,0,0,0,0,4,-2,0,0,0,1,1,-1,1000,15,-4,0,0,1624,32,719,-1,1,0,-32,-122,2054,-1,-2,0,0,158,183,235,259,524291,0,0,1,1,-0.052939369173202945,0.013785531519491368,4.396490967957186,20,-6,0,15,-4,0,0,16,-5,0,158,183,235,259
238,34770151,16,-4,0,0,0,0,4,0,0,0,0,1,1,-1,1000,15,-4,0,0,1624,32,719,-1,0,0,-25,-124,2053,0,-3,0,0,158,174,236,251,524291,0,0,1,1,-0.05301850004932848,0.013770430359530877,4.396490962758064,20,-4,0,15,-4,0,0,16,-4,0,158,174,236,251
240,34770766,16,-3,0,0,0,0,4,1,0,0,0,1,1,-1,1000,15,-4,0,0,1624,32,719,-1,0,-1,-25,-124,2053,1,-2,0,0,158,165,233,241,524291,0,0,1,1,-0.05309644835983224,0.013755018069802833,4.3965016773156,20,-2,0,15,-4,0,0,16,-4,1,158,165,233,241
242,34771383,16,-3,0,0,0,0,3,3,0,0,0,1,1,-1,1000,15,-4,0,0,1624,32,719,-1,-1,-1,-20,-126,2053,1,-2,0,0,159,158,229,230,524291,0,0,1,1,-0.05318207004621498,0.01370701914706249,4.3965118535627745,19,0,0,15,-4,0,0,16,-3,1,159,158,229,230
244,34772001,16,-3,0,0,0,0,1,4,0,0,0,1,1,-1,1000,15,-4,0,0,1624,32,719,-1,-1,-1,-20,-126,2053,1,-1,0,0,165,158,229,224,524291,0,0,1,1,-0.053266380234249296,0.013659707222720101,4.3965220446148505,17,1,0,15,-4,0,0,16,-3,1,165,158,229,224
246,34772619,15,-2,0,0,0,0,0,5,0,0,0,1,1,-1,1000,15,-4,0,0,1624,32,719,0,-1,0,-17,-124,2055,3,-1,0,0,168,158,226,217,524291,0,0,1,1,-0.053329364463210384,0.013600431636702045,4.396521463333862,15,3,0,15,-4,0,0,15,-3,0,168,158,226,217
248,34773237,15,-2,0,0,0,0,-1,5,0,0,0,1,1,-1,1000,15,-4,0,0,1624,32,719,0,-1,0,-17,-124,2055,2,0,0,0,169,158,219,211,524291,0,0,1,1,-0.05339132757431453,0.013542038507011266,4.396520880820558,14,3,0,15,-4,0,0,15,-3,0,169,158,219,211
250,34773856,15,-2,0,0,0,0,-2,4,0,0,0,1,1,-1,1000,15,-4,0,0,1624,32,719,1,-1,0,-17,-124,2055,1,1,0,0,166,158,212,205,524291,0,0,1,1,-0.0534415863141684,0.01348448942355455,4.396520296276067,13,2,0,15,-4,0,0,14,-3,0,166,158,212,205
252,34774471,14,-3,0,0,0,0,-3,3,0,0,0,1,1,-1,1000,15,-4,0,0,1624,32,719,1,-1,0,-18,-122,2057,1,1,0,0,161,158,203,200,524291,0,0,1,1,-0.05348203725017473,0.013432017538363936,4.3965197156724125,11,0,0,15,-4,0,0,14,-3,0,161,158,203,200
254,34775088,14,-3,0,0,0,0,-4,2,0,0,0,1,1,-1,1000,15,-4,0,0,1624,32,719,1,-1,0,-18,-122,2057,-1,1,0,0,158,162,199,202,524291,0,0,1,1,-0.053521736334503404,0.013380266472465721,4.396519132330073,10,-1,0,15,-4,0,0,14,-3,0,158,162,199,202
256,34775706,14,-3,0,0,0,0,-3,1,0,0,0,1,1,-1,1000,15,-4,0,0,1624,32,719,1,0,1,-21,-120,2057,-1,1,0,0,158,169,201,210,524291,0,0,1,1,-0.0535521626327209,0.01335313742028286,4.396508354350874,11,-2,0,15,-4,0,0,14,-4,-1,158,169,201,210
258,34776326,14,-4,0,0,0,0,-3,-1,0,0,0,1,1,-1,1000,15,-4,0,0,1624,32,719,1,0,1,-21,-120,2057,-1,1,0,0,158,178,205,221,524291,0,0,1,1,-0.053582003236335364,0.013326437776573302,4.396497541645201,11,-5,0,15,-4,0,0,14,-4,-1,158,178,205,221
260,34776941,15,-4,0,0,0,0,-1,-3,0,0,0,1,1,-1,1000,15,-4,0,0,1624,32,719,0,0,1,-23,-117,2054,-1,1,0,0,158,185,210,234,524291,0,0,1,1,-0.053610248663983666,0.013308640058191839,4.396486818023923,14,-7,0,15,-4,0,0,15,-4,-1,158,185,210,234
262,34777558,15,-4,0,0,0,0,0,-4,0,0,0,1,1,-1,1000,15,-4,0,0,1624,32,719,0,1,0,-23,-117,2054,-1,1,0,0,158,190,216,245,524291,0,0,1,1,-0.05363820912767171,0.013301211126678246,4.396487391177444,15,-8,0,15,-4,0,0,15,-5,0,158,190,216,245
264,34778178,16,-5,0,0,0,0,1,-4,0,0,0,1,1,-1,1000,15,-4,0,0,1624,32,719,0,1,0,-24,-116,2050,0,0,0,0,158,192,222,253,524291,0,0,1,1,-0.053662528484546584,0.013298341489782185,4.396487968213991,17,-9,0,15,-4,0,0,15,-5,0,158,192,222,253
266,34778793,16,-5,0,0,0,0,2,-4,0,0,0,1,1,-1,1000,15,-4,0,0,1624,32,719,-1,1,0,-24,-116,2050,0,0,0,0,158,192,227,259,524291,0,0,1,1,-0.05369712516136596,0.013295501200801807,4.396488541262153,18,-9,0,15,-4,0,0,16,-5,0,158,192,227,259
268,34779410,16,-5,0,0,0,0,3,-4,0,0,0,1,1,-1,1000,15,-4,0,0,1624,32,719,-1,1,0,-24,-116,2047,-1,0,0,0,158,190,230,261,524291,0,0,1,1,-0.05373196224168821,0.013292970428155634,4.396489116789725,19,-9,0,15,-4,0,0,16,-5,0,158,190,230,261
270,34780031,16,-5,0,0,0,0,3,-3,0,0,0,1,1,-1,1000,15,-4,0,0,1624,32,719,-1,1,0,-24,-116,2047,0,0,0,0,158,187,231,259,524291,0,0,1,1,-0.05376642292018002,0.013290617155305624,4.396489696747025,19,-8,0,15,-4,0,0,16,-5,0,158,187,231,259
272,34780646,16,-4,0,0,0,0,3,-2,0,0,0,1,1,-1,1000,15,-4,0,0,1613,42,718,-1,1,-1,-24,-118,2048,1,-1,0,0,158,181,229,253,524291,0,0,1,1,-0.05380824604853932,0.013287634597376304,4.396500990249855,19,-6,0,15,-4,0,0,16,-5,1,158,181,229,253
274,34781263,16,-4,0,0,0,0,2,-1,0,0,0,1,1,-1,1000,15,-4,0,0,1613,42,718,-1,0,0,-24,-118,2048,0,-2,0,0,158,174,226,243,524291,0,0,1,1,-0.05384941364672643,0.013274702673716006,4.396500987589343,18,-5,0,15,-4,0,0,16,-4,0,158,174,226,243
276,34781882,16,-4,0,0,0,0,1,1,0,0,0,1,1,-1,1000,15,-4,0,0,1613,42,718,0,0,0,-23,-119,2050,0,-2,0,0,158,167,222,233,524291,0,0,1,1,-0.05388288320828861,0.01325790956032643,4.39650098465951,17,-3,0,15,-4,0,0,15,-4,0,158,167,222,233
278,34782498,15,-3,0,0,0,0,0,2,0,0,0,1,1,-1,1000,15,-4,0,0,1613,42,718,0,0,0,-23,-119,2050,1,-1,0,0,158,162,217,223,524291,0,0,1,1,-0.05391586965832204,0.013241358822847708,4.396500981771955,15,-1,0,15,-4,0,0,15,-4,0,158,162,217,223
280,34783115,15,-3,0,0,0,0,0,3,0,0,0,1,1,-1,1000,15,-4,0,0,1613,42,718,0,-1,0,-23,-118,2049,0,0,0,0,158,159,213,216,524291,0,0,1,1,-0.05394469883436912,0.013214432313705853,4.3965003985649025,15,0,0,15,-4,0,0,15,-3,0,158,159,213,216
282,34783735,15,-3,0,0,0,0,-1,3,0,0,0,1,1,-1,1000,15,-4,0,0,1613,42,718,0,-1,0,-23,-118,2049,0,0,0,0,158,158,211,211,524291,0,0,1,1,-0.05397311787657255,0.0131877693419335,4.3964998119578755,14,0,0,15,-4,0,0,15,-3,0,158,158,211,211
284,34784351,15,-3,0,0,0,0,-1,3,0,0,0,1,1,-1,1000,15,-4,0,0,1613,42,718,0,-1,0,-24,-118,2048,0,0,0,0,158,158,210,209,524291,0,0,1,1,-0.05400134299287236,0.013165378460372086,4.396499228529448,14,0,0,15,-4,0,0,15,-3,0,158,158,210,209
286,34784968,15,-3,0,0,0,0,-2,3,0,0,0,1,1,-1,1000,15,-4,0,0,1613,42,718,0,-1,0,-24,-118,2048,-1,0,0,0,158,160,210,211,524291,0,0,1,1,-0.05402917235683427,0.013143217817336768,4.39649864360418,13,0,0,15,-4,0,0,15,-3,0,158,160,210,211
288,34785585,15,-3,0,0,0,0,-1,2,0,0,0,1,1,-1,1000,15,-4,0,0,1613,42,718,0,-1,1,-27,-118,2046,0,1,0,0,158,164,211,214,524291,0,0,1,1,-0.054056884354305126,0.013133364342845268,4.396487304200459,14,-1,0,15,-4,0,0,15,-3,-1,158,164,211,214
290,34786205,15,-3,0,0,0,0,-1,1,0,0,0,1,1,-1,1000,15,-4,0,0,1613,42,718,0,0,0,-27,-118,2046,1,1,0,0,158,168,213,220,524291,0,0,1,1,-0.054084360364223774,0.0131336778948792,4.396487300335926,14,-2,0,15,-4,0,0,15,-4,0,158,168,213,220
292,34786820,15,-4,0,0,0,0,-1,0,0,0,0,1,1,-1,1000,15,-4,0,0,1613,42,718,0,0,0,-31,-118,2045,0,1,0,0,158,172,215,227,524291,0,0,1,1,-0.0541116622688494,0.01314903713401681,4.396487296496462,14,-4,0,15,-4,0,0,15,-4,0,158,172,215,227
294,34787437,15,-4,0,0,0,0,0,-1,0,0,0,1,1,-1,1000,15,-4,0,0,1613,42,718,0,0,0,-31,-118,2045,0,0,0,0,158,177,216,232,524291,0,0,1,1,-0.054138592307260154,0.013164187156608576,4.396487292709289,15,-5,0,15,-4,0,0,15,-4,0,158,177,216,232
296,34788057,15,-4,0,0,0,0,0,-1,0,0,0,1,1,-1,1000,15,-4,0,0,1613,42,718,0,0,0,-34,-117,2047,0,0,0,0,158,180,217,237,524291,0,0,1,1,-0.05416105587922911,0.013190154092692688,4.39648728955075,15,-5,0,15,-4,0,0,15,-4,0,158,180,217,237
298,34788673,15,-4,0,0,0,0,0,-2,0,0,0,1,1,-1,1000,15,-4,0,0,1613,42,718,0,0,0,-34,-117,2047,1,1,0,0,158,181,217,239,524291,0,0,1,1,-0.054183217219301395,0.013215771637575102,4.396487286434705,15,-6,0,15,-4,0,0,15,-4,0,158,181,217,239
300,34789290,15,-4,0,0,0,0,0,-2,0,0,0,1,1,-1,1000,15,-4,0,0,1613,42,718,0,1,0,-36,-115,2048,1,1,0,0,158,183,216,240,524291,0,0,1,1,-0.054197576748288984,0.01325899997038703,4.396487867819307,15,-6,0,15,-4,0,0,15,-5,0,158,183,216,240
302,34789910,15,-4,0,0,0,0,0,-2,0,0,0,1,1,-1,1000,15,-4,0,0,1613,42,718,0,1,0,-36,-115,2048,1,0,0,0,158,183,215,240,524291,0,0,1,1,-0.05421174562519974,0.013301768404365687,4.396488452373331,15,-6,0,15,-4,0,0,15,-5,0,158,183,215,240
304,34790525,15,-4,0,0,0,0,0,-2,0,0,0,1,1,-1,1000,15,-4,0,0,1613,42,718,0,1,0,-35,-113,2048,1,0,0,0,158,183,213,239,524291,0,0,1,1,-0.05421849720359545,0.01334033360258963,4.396489033307452,15,-6,0,15,-4,0,0,15,-5,0,158,183,213,239
306,34791142,15,-4,0,0,0,0,0,-2,0,0,0,1,1,-1,1000,15,-4,0,0,1613,42,718,0,1,0,-35,-113,2048,0,1,0,0,158,181,213,237,524291,0,0,1,1,-0.05422516034513002,0.013378489086227475,4.396489616287415,15,-6,0,15,-4,0,0,15,-5,0,158,181,213,237
308,34791763,15,-4,0,0,0,0,0,-1,0,0,0,1,1,-1,1000,15,-4,0,0,1613,42,718,0,1,0,-35,-113,2049,0,1,0,0,158,179,213,236,524291,0,0,1,1,-0.0542315427808176,0.01341622983966638,4.396490203220033,15,-5,0,15,-4,0,0,15,-5,0,158,179,213,236
310,34792377,15,-4,0,0,0,0,0,-1,0,0,0,1,1,-1,1000,15,-4,0,0,1613,42,718,0,1,0,-35,-113,2049,-1,0,0,0,158,177,215,235,524291,0,0,1,1,-0.054237842527606474,0.013453421761239648,4.396490783673728,15,-5,0,15,-4,0,0,15,-5,0,158,177,215,235
312,34792994,15,-4,0,0,0,0,0,0,0,0,0,1,1,-1,1000,15,-4,0,0,1613,42,718,0,0,0,-36,-114,2049,-2,-1,0,0,158,174,217,233,524291,0,0,1,1,-0.054247587359615435,0.013483107977032371,4.3964907829347695,15,-4,0,15,-4,0,0,15,-4,0,158,174,217,233
314,34793612,15,-4,0,0,0,0,1,0,0,0,0,1,1,-1,1000,15,-4,0,0,1613,42,718,0,0,0,-36,-114,2049,-1,-2,0,0,158,171,219,232,524291,0,0,1,1,-0.05425720755506665,0.013512414481081278,4.396490782205267,16,-4,0,15,-4,0,0,15,-4,0,158,171,219,232
316,34794232,16,-4,0,0,0,0,1,1,0,0,0,1,1,-1,1000,15,-4,0,0,1613,42,718,0,0,0,-35,-114,2048,-1,-1,0,0,158,168,223,231,524291,0,0,1,1,-0.0542668953128758,0.013537896509888084,4.396490781470295,17,-3,0,15,-4,0,0,15,-4,0,158,168,223,231
318,34794847,16,-3,0,0,0,0,2,2,0,0,0,1,1,-1,1000,15,-4,0,0,1613,42,718,-1,0,0,-35,-114,2048,-1,-1,0,0,158,164,226,230,524291,0,0,1,1,-0.054287117909618564,0.013563056824934193,4.396490780750435,18,-1,0,15,-4,0,0,16,-4,0,158,164,226,230
320,34795465,16,-3,0,0,0,0,2,2,0,0,0,1,1,-1,1000,15,-4,0,0,1613,42,718,-1,-1,0,-35,-113,2046,0,-1,0,0,158,161,227,229,524291,0,0,1,1,-0.054304108468923015,0.013577304091079321,4.396490194782242,18,-1,0,15,-4,0,0,16,-3,0,158,161,227,229
322,34796084,16,-3,0,0,0,0,2,3,0,0,0,1,1,-1,1000,15,-4,0,0,1613,42,718,-1,-1,0,-35,-113,2046,0,-1,0,0,158,159,228,227,524291,0,0,1,1,-0.05432096291096419,0.013591298424383438,4.3964896076309,18,0,0,15,-4,0,0,16,-3,0,158,159,228,227
324,34796699,16,-3,0,0,0,0,2,3,0,0,0,1,1,-1,1000,15,-4,0,0,1613,42,718,-1,-1,0,-36,-110,2045,0,0,0,0,158,159,226,225,524291,0,0,1,1,-0.05432752451736395,0.01360860899812924,4.396489025132898,18,0,0,15,-4,0,0,16,-3,0,158,159,226,225
326,34797317,16,-3,0,0,0,0,1,3,0,0,0,1,1,-1,1000,15,-4,0,0,1613,42,718,0,-1,0,-36,-110,2045,1,1,0,0,158,160,223,223,524291,0,0,1,1,-0.05432340356624162,0.013625597727763495,4.396488439874543,17,0,0,15,-4,0,0,15,-3,0,158,160,223,223
328,34797934,15,-3,0,0,0,0,0,2,0,0,0,1,1,-1,1000,15,-4,0,0,1613,42,718,0,-1,0,-38,-106,2047,3,1,0,0,158,161,217,220,524291,0,0,1,1,-0.05430543139625732,0.013649032446785215,4.396487857451764,15,-1,0,15,-4,0,0,15,-3,0,158,161,217,220
330,34798552,15,-3,0,0,0,0,-1,1,0,0,0,1,1,-1,1000,15,-4,0,0,1613,42,718,0,-1,0,-38,-106,2047,3,0,0,0,158,165,211,217,524291,0,0,1,1,-0.05428767775034661,0.013672108300035051,4.396487274437106,14,-2,0,15,-4,0,0,15,-3,0,158,165,211,217
332,34799169,14,-3,0,0,0,0,-2,0,0,0,0,1,1,-1,1000,15,-4,0,0,1613,42,718,1,0,0,-38,-106,2047,2,0,0,0,158,170,204,216,524291,0,0,1,1,-0.05425945197389698,0.013705545137820081,4.39648727689414,12,-3,0,15,-4,0,0,14,-4,0,158,170,204,216
334,34799789,14,-4,0,0,0,0,-4,-1,0,0,0,1,1,-1,1000,15,-4,0,0,1613,42,718,1,0,0,-39,-101,2048,2,1,0,0,158,175,198,216,524291,0,0,1,1,-0.05421462319457819,0.01374188172349805,4.396487281679481,10,-5,0,15,-4,0,0,14,-4,0,158,175,198,216
336,34800404,14,-4,0,0,0,0,-4,-2,0,0,0,1,1,-1,1000,15,-4,0,0,1618,42,718,1,0,0,-39,-101,2048,1,2,0,0,158,180,195,217,524291,0,0,1,1,-0.0541703612273063,0.013777783906355368,4.396487286397352,10,-6,0,15,-4,0,0,14,-4,0,158,180,195,217
338,34801022,14,-4,0,0,0,0,-4,-3,0,0,0,1,1,-1,1000,15,-4,0,0,1618,32,718,2,1,0,-40,-98,2047,-1,1,0,0,158,184,195,220,524291,0,0,1,1,-0.054106101809551076,0.013827310624606123,4.396487875771557,10,-7,0,15,-4,0,0,13,-5,0,158,184,195,220
340,34801639,14,-4,0,0,0,0,-4,-3,0,0,0,1,1,-1,1000,15,-4,0,0,1618,32,718,1,1,0,-40,-98,2047,-1,0,0,0,158,186,198,225,524291,0,0,1,1,-0.05405322253590567,0.013876289873331343,4.39648846309905,10,-7,0,15,-4,0,0,14,-5,0,158,186,198,225
342,34802258,14,-4,0,0,0,0,-2,-3,0,0,0,1,1,-1,1000,15,-4,0,0,1618,32,718,1,1,0,-40,-98,2044,-2,-1,0,0,158,186,204,231,524291,0,0,1,1,-0.054001404351841586,0.013924919234668499,4.396489051170727,12,-7,0,15,-4,0,0,14,-5,0,158,186,204,231
344,34802874,15,-4,0,0,0,0,-1,-3,0,0,0,1,1,-1,1000,15,-4,0,0,1618,32,718,0,1,0,-40,-98,2044,-3,0,0,0,158,185,212,238,524291,0,0,1,1,-0.05396086772085235,0.01397298385884188,4.3964896354870575,14,-7,0,15,-4,0,0,15,-5,0,158,185,212,238
346,34803491,15,-4,0,0,0,0,1,-2,0,0,0,1,1,-1,1000,15,-4,0,0,1618,32,718,0,0,0,-38,-101,2038,-2,0,0,0,158,181,221,243,524291,0,0,1,1,-0.05393153240231404,0.014003674266491824,4.396489638353013,16,-6,0,15,-4,0,0,15,-4,0,158,181,221,243
348,34804111,16,-4,0,0,0,0,3,-1,0,0,0,1,1,-1,1000,15,-4,0,0,1618,32,718,-1,0,0,-38,-101,2038,-2,-1,0,0,158,176,230,247,524291,0,0,1,1,-0.05391328393162164,0.01403401217620122,4.396489641192997,19,-5,0,15,-4,0,0,16,-4,0,158,176,230,247
350,34804728,16,-4,0,0,0,0,4,0,0,0,0,1,1,-1,1000,15,-4,0,0,1618,32,718,-1,0,0,-34,-105,2033,-1,-2,0,0,158,171,236,249,524291,0,0,1,1,-0.053908905968834596,0.014051404511583212,4.396489642672888,20,-4,0,15,-4,0,0,16,-4,0,158,171,236,249
352,34805344,17,-3,0,0,0,0,5,1,0,0,0,1,1,-1,1000,15,-4,0,0,1618,32,718,-1,0,0,-34,-105,2033,-1,-1,0,0,158,166,240,248,524291,0,0,1,1,-0.05390461232545546,0.014068599839264301,4.39648964414283,22,-2,0,15,-4,0,0,16,-4,0,158,166,240,248
354,34805964,17,-3,0,0,0,0,5,2,0,0,0,1,1,-1,1000,15,-4,0,0,1618,32,718,-2,-1,0,-30,-107,2032,-1,-1,0,0,158,161,242,245,524291,0,0,1,1,-0.05391773964789665,0.014062214614041129,4.396489061752365,22,-1,0,15,-4,0,0,17,-3,0,158,161,242,245
356,34806579,17,-3,0,0,0,0,5,3,0,0,0,1,1,-1,1000,15,-4,0,0,1618,32,718,-1,-1,0,-30,-107,2032,1,-1,0,0,158,158,240,238,524291,0,0,1,1,-0.05391998505319058,0.01405593591849799,4.396488484130316,22,0,0,15,-4,0,0,16,-3,0,158,158,240,238
358,34807197,16,-3,0,0,0,0,3,3,0,0,0,1,1,-1,1000,15,-4,0,0,1618,32,718,-1,-1,0,-27,-107,2034,2,-1,0,0,160,158,236,233,524291,0,0,1,1,-0.053921969461834134,0.014040108225780766,4.396487903792511,19,0,0,15,-4,0,0,16,-3,0,160,158,236,233
360,34807814,16,-3,0,0,0,0,2,3,0,0,0,1,1,-1,1000,15,-4,0,0,1618,32,718,-1,-1,0,-27,-107,2034,2,-2,0,0,160,158,230,226,524291,0,0,1,1,-0.05392396537752989,0.014024422555149569,4.396487324465129,18,0,0,15,-4,0,0,16,-3,0,160,158,230,226
362,34808441,16,-3,0,0,0,0,0,3,0,0,0,1,1,-1,1000,15,-4,0,0,1618,32,718,0,-1,0,-25,-103,2035,3,0,0,0,159,158,219,217,524291,0,0,1,1,-0.053902684350993865,0.01400242579510667,4.396486737816181,16,0,0,15,-4,0,0,15,-3,0,159,158,219,217
364,34809049,15,-3,0,0,0,0,-2,2,0,0,0,1,1,-1,1000,15,-4,0,0,1618,32,718,0,-1,0,-25,-103,2035,2,2,0,0,158,160,209,209,524291,0,0,1,1,-0.05388163709174106,0.013980948534210922,4.3964861694555335,13,-1,0,15,-4,0,0,15,-3,0,158,160,209,209
366,34809667,14,-3,0,0,0,0,-3,1,0,0,0,1,1,-1,1000,15,-4,0,0,1618,32,718,1,-1,0,-26,-99,2033,2,2,0,0,158,165,201,206,524291,0,0,1,1,-0.05383811125839289,0.013962663048221339,4.396485594282954,11,-2,0,15,-4,0,0,14,-3,0,158,165,201,206
368,34810286,14,-3,0,0,0,0,-5,0,0,0,0,1,1,-1,1000,15,-4,0,0,1618,32,718,1,0,0,-26,-99,2033,1,2,0,0,158,172,194,206,524291,0,0,1,1,-0.05379499856052301,0.013955229522557377,4.396485599871232,9,-3,0,15,-4,0,0,14,-4,0,158,172,194,206
370,34810901,14,-4,0,0,0,0,-5,-1,0,0,0,1,1,-1,1000,15,-4,0,0,1618,32,718,1,0,0,-29,-99,2029,0,1,0,0,158,178,192,210,524291,0,0,1,1,-0.05375302790227561,0.013957215046821738,4.396485605274211,9,-5,0,15,-4,0,0,14,-4,0,158,178,192,210
372,34811518,14,-4,0,0,0,0,-5,-2,0,0,0,1,1,-1,1000,15,-4,0,0,1618,32,718,1,0,0,-29,-99,2029,-2,1,0,0,158,183,193,217,524291,0,0,1,1,-0.0537114233420286,0.013959179294897607,4.3964856106078285,9,-6,0,15,-4,0,0,14,-4,0,158,183,193,217
374,34812139,14,-4,0,0,0,0,-4,-3,0,0,0,1,1,-1,1000,15,-4,0,0,1618,32,718,1,1,0,-34,-101,2024,-2,1,0,0,158,188,198,227,524291,0,0,1,1,-0.05367701462491683,0.01398722930023233,4.396486196241904,10,-7,0,15,-4,0,0,14,-5,0,158,188,198,227
376,34812754,15,-5,0,0,0,0,-2,-4,0,0,0,1,1,-1,1000,15,-4,0,0,1618,32,718,1,1,0,-34,-101,2024,-2,1,0,0,158,191,206,238,524291,0,0,1,1,-0.0536430252531615,0.014014927194674837,4.396486775586865,13,-9,0,15,-4,0,0,14,-5,0,158,191,206,238
378,34813371,15,-5,0,0,0,0,0,-4,0,0,0,1,1,-1,1000,15,-4,0,0,1618,32,718,0,1,0,-38,-106,2021,-2,0,0,0,158,190,215,247,524291,0,0,1,1,-0.05363548788609564,0.014054538641508752,4.396487354093937,15,-9,0,15,-4,0,0,15,-5,0,158,190,215,247
380,34813991,16,-5,0,0,0,0,2,-3,0,0,0,1,1,-1,1000,15,-4,0,0,1618,32,718,0,1,0,-38,-106,2021,-2,-1,0,0,158,188,223,253,524291,0,0,1,1,-0.053628029325622245,0.014093835617904176,4.396487935236007,18,-8,0,15,-4,0,0,15,-5,0,158,188,223,253
382,34814606,16,-4,0,0,0,0,3,-2,0,0,0,1,1,-1,1000,15,-4,0,0,1618,32,718,-1,1,0,-39,-110,2021,-2,-1,0,0,158,184,231,257,524291,0,0,1,1,-0.0536432052848009,0.0141356514842795,4.396488510237157,19,-6,0,15,-4,0,0,16,-5,0,158,184,231,257
384,34815223,17,-4,0,0,0,0,4,-1,0,0,0,1,1,-1,1000,15,-4,0,0,1618,32,718,-1,0,0,-39,-110,2021,-1,-1,0,0,158,179,236,257,524291,0,0,1,1,-0.05365829760507537,0.01416642747227535,4.396488509723836,21,-5,0,15,-4,0,0,16,-4,0,158,179,236,257
386,34815845,17,-4,0,0,0,0,4,0,0,0,0,1,1,-1,1000,15,-4,0,0,1618,32,718,-1,0,0,-35,-111,2023,1,-1,0,0,158,173,237,253,524291,0,0,1,1,-0.05367599758869082,0.014185001196378883,4.39648850890951,21,-4,0,15,-4,0,0,16,-4,0,158,173,237,253
388,34816460,17,-3,0,0,0,0,4,1,0,0,0,1,1,-1,1000,15,-4,0,0,1618,32,718,-1,0,0,-35,-111,2023,1,-2,0,0,158,167,235,245,524291,0,0,1,1,-0.05369344137383277,0.014203384571250923,4.3964885081111404,21,-2,0,15,-4,0,0,16,-4,0,158,167,235,245
390,34817076,16,-3,0,0,0,0,3,2,0,0,0,1,1,-1,1000,15,-4,0,0,1618,32,718,-1,-1,0,-29,-108,2026,2,-2,0,0,158,161,231,235,524291,0,0,1,1,-0.053701527982704424,0.014193242373236877,4.396487931289533,19,-1,0,15,-4,0,0,16,-3,0,158,161,231,235
392,34817693,16,-3,0,0,0,0,2,3,0,0,0,1,1,-1,1000,15,-4,0,0,1618,32,718,-1,-1,0,-29,-108,2026,2,-1,0,0,159,158,225,225,524291,0,0,1,1,-0.0537095954409654,0.014183140269284975,4.396487353477609,18,0,0,15,-4,0,0,16,-3,0,159,158,225,225
394,34818311,15,-3,0,0,0,0,0,3,0,0,0,1,1,-1,1000,15,-4,0,0,1618,32,718,0,-1,0,-25,-105,2027,1,0,0,0,161,158,220,217,524291,0,0,1,1,-0.05369807676501335,0.014161443342134577,4.396486776121389,15,0,0,15,-4,0,0,15,-3,0,161,158,220,217
396,34818927,15,-2,0,0,0,0,-1,4,0,0,0,1,1,-1,1000,15,-4,0,0,1618,32,718,0,-1,0,-25,-105,2027,1,0,0,0,162,158,215,210,524291,0,0,1,1,-0.053686674067487845,0.014139954202752159,4.396486200868005,14,2,0,15,-4,0,0,15,-3,0,162,158,215,210
398,34819546,15,-2,0,0,0,0,-3,3,0,0,0,1,1,-1,1000,15,-4,0,0,1618,32,718,1,-1,0,-26,-102,2025,1,0,0,0,161,158,208,204,524291,0,0,1,1,-0.053656337222723484,0.014121546792167792,4.396485624572941,12,1,0,15,-4,0,0,14,-3,0,161,158,208,204
400,34820165,14,-3,0,0,0,0,-3,3,0,0,0,1,1,-1,1000,15,-4,0,0,1618,32,718,1,-1,0,-26,-102,2025,1,0,0,0,158,158,200,199,524291,0,0,1,1,-0.053626257620603274,0.014103277880730482,4.396485048768799,11,0,0,15,-4,0,0,14,-3,0,158,158,200,199
402,34820781,14,-3,0,0,0,0,-4,2,0,0,0,1,1,-1,1000,15,-4,0,0,1617,25,718,1,-1,0,-30,-101,2018,0,1,0,0,158,164,199,203,524291,0,0,1,1,-0.05359470484352253,0.014096888411024605,4.396484476598624,10,-1,0,15,-4,0,0,14,-3,0,158,164,199,203
404,34821398,14,-3,0,0,0,0,-3,0,0,0,0,1,1,-1,1000,15,-4,0,0,1617,25,718,1,0,0,-30,-101,2018,-1,2,0,0,158,170,200,211,524291,0,0,1,1,-0.05356340880606237,0.014101192016396183,4.396484480590339,11,-3,0,15,-4,0,0,14,-4,0,158,170,200,211
406,34822019,14,-4,0,0,0,0,-3,-1,0,0,0,1,1,-1,1000,15,-4,0,0,1617,25,718,1,0,0,-37,-100,2010,-1,2,0,0,158,177,204,221,524291,0,0,1,1,-0.05353069136341051,0.014125576653991763,4.396484484844912,11,-5,0,15,-4,0,0,14,-4,0,158,177,204,221
408,34822633,15,-4,0,0,0,0,-2,-2,0,0,0,1,1,-1,1000,15,-4,0,0,1617,25,718,0,1,0,-37,-100,2010,-1,2,0,0,158,184,209,234,524291,0,0,1,1,-0.0535090323763514,0.014160365371341615,4.396485062262073,13,-6,0,15,-4,0,0,15,-5,0,158,184,209,234
410,34823251,15,-5,0,0,0,0,0,-4,0,0,0,1,1,-1,1000,15,-4,0,0,1617,25,718,0,1,0,-42,-102,2005,-1,1,0,0,158,190,215,246,524291,0,0,1,1,-0.05349393832772955,0.014209156964489591,4.39648564181339,15,-9,0,15,-4,0,0,15,-5,0,158,190,215,246
412,34823870,15,-5,0,0,0,0,1,-4,0,0,0,1,1,-1,1000,15,-4,0,0,1617,25,718,0,1,0,-42,-102,2005,0,1,0,0,158,193,220,254,524291,0,0,1,1,-0.05347898877125867,0.014257541601550246,4.39648622194975,16,-9,0,15,-4,0,0,15,-5,0,158,193,220,254
414,34824486,16,-5,0,0,0,0,2,-4,0,0,0,1,1,-1,1000,15,-4,0,0,1617,25,718,0,1,0,-45,-102,2006,0,1,0,0,158,194,225,260,524291,0,0,1,1,-0.05346403279586147,0.014313768664613407,4.396486798967071,18,-9,0,15,-4,0,0,15,-5,0,158,194,225,260
416,34825103,16,-5,0,0,0,0,2,-4,0,0,0,1,1,-1,1000,15,-4,0,0,1617,25,718,-1,1,0,-45,-102,2006,0,0,0,0,158,193,228,262,524291,0,0,1,1,-0.05345992744674496,0.014369521661529395,4.396487376700767,18,-9,0,15,-4,0,0,16,-5,0,158,193,228,262
418,34825720,16,-5,0,0,0,0,3,-3,0,0,0,1,1,-1,1000,15,-4,0,0,1617,25,718,-1,1,0,-45,-102,2006,0,0,0,0,158,189,228,259,524291,0,0,1,1,-0.053455902839488326,0.014424790013776114,4.396487954220595,19,-8,0,15,-4,0,0,16,-5,0,158,189,228,259
420,34826341,16,-5,0,0,0,0,2,-2,0,0,0,1,1,-1,1000,15,-4,0,0,1617,25,718,0,1,0,-45,-102,2009,1,0,0,0,158,185,225,253,524291,0,0,1,1,-0.05344080765163295,0.014479530403313016,4.396488535188434,18,-7,0,15,-4,0,0,15,-5,0,158,185,225,253
422,34826955,16,-4,0,0,0,0,2,-1,0,0,0,1,1,-1,1000,15,-4,0,0,1617,25,718,0,1,0,-45,-102,2009,1,0,0,0,158,179,224,245,524291,0,0,1,1,-0.053425853916035625,0.014533678081656334,4.396489109290092,18,-5,0,15,-4,0,0,15,-5,0,158,179,224,245
424,34827573,16,-4,0,0,0,0,1,0,0,0,0,1,1,-1,1000,15,-4,0,0,1617,25,718,0,0,0,-40,-102,2011,0,-2,0,0,158,171,221,235,524291,0,0,1,1,-0.05341073987907259,0.014562986642974037,4.396489110930834,17,-4,0,15,-4,0,0,15,-4,0,158,171,221,235
426,34828192,15,-4,0,0,0,0,0,2,0,0,0,1,1,-1,1000,15,-4,0,0,1617,25,718,0,0,0,-40,-102,2011,0,-2,0,0,158,164,216,224,524291,0,0,1,1,-0.05339576639425943,0.014592022622996045,4.396489112556322,15,-2,0,15,-4,0,0,15,-4,0,158,164,216,224
428,34828808,15,-3,0,0,0,0,0,3,0,0,0,1,1,-1,1000,15,-4,0,0,1617,25,718,0,-1,0,-34,-102,2012,-1,-2,0,0,158,159,214,216,524291,0,0,1,1,-0.05338077859177204,0.014593813824583714,4.396488540483718,15,0,0,15,-4,0,0,15,-3,0,158,159,214,216
430,34829425,15,-3,0,0,0,0,-1,4,0,0,0,1,1,-1,1000,15,-4,0,0,1617,25,718,0,-1,0,-34,-102,2012,0,-1,0,0,163,158,218,214,524291,0,0,1,1,-0.05336592896259072,0.014595530555660742,4.396487967783731,14,1,0,15,-4,0,0,15,-3,0,163,158,218,214
432,34830045,15,-2,0,0,0,0,-1,4,0,0,0,1,1,-1,1000,15,-4,0,0,1617,25,718,0,-1,0,-31,-104,2012,-1,0,0,0,166,158,220,213,524291,0,0,1,1,-0.05335658797766823,0.01458906653777999,4.396487391834958,14,2,0,15,-4,0,0,15,-3,0,166,158,220,213
434,34830660,15,-2,0,0,0,0,-1,4,0,0,0,1,1,-1,1000,15,-4,0,0,1617,25,718,0,-1,0,-31,-104,2012,-1,0,0,0,166,158,221,213,524291,0,0,1,1,-0.053347332419809455,0.014582707841516494,4.39648682072879,14,2,0,15,-4,0,0,15,-3,0,166,158,221,213
436,34831277,15,-2,0,0,0,0,-1,4,0,0,0,1,1,-1,1000,15,-4,0,0,1617,25,718,0,-1,0,-33,-106,2011,0,1,0,0,164,158,220,213,524291,0,0,1,1,-0.05334363576178245,0.014581705992229896,4.3964862470583315,14,2,0,15,-4,0,0,15,-3,0,164,158,220,213
438,34831897,15,-3,0,0,0,0,0,3,0,0,0,1,1,-1,1000,15,-4,0,0,1617,25,718,0,-1,0,-33,-106,2011,0,1,0,0,159,158,217,214,524291,0,0,1,1,-0.053339972511228205,0.01458062142847004,4.3964856706695885,15,0,0,15,-4,0,0,15,-3,0,159,158,217,214
440,34832512,15,-3,0,0,0,0,0,2,0,0,0,1,1,-1,1000,15,-4,0,0,1617,25,718,0,-1,1,-38,-107,2010,0,2,0,0,158,164,218,222,524291,0,0,1,1,-0.05333897482955233,0.014593448105617593,4.396474378843463,15,-1,0,15,-4,0,0,15,-3,-1,158,164,218,222
442,34833130,15,-3,0,0,0,0,0,0,0,0,0,1,1,-1,1000,15,-4,0,0,1617,25,718,0,0,1,-38,-107,2010,0,1,0,0,158,172,219,230,524291,0,0,1,1,-0.05333799278497575,0.014616786874608776,4.396463607045062,15,-3,0,15,-4,0,0,15,-4,-1,158,172,219,230
444,34833747,15,-4,0,0,0,0,0,-1,0,0,0,1,1,-1,1000,15,-4,0,0,1617,25,718,0,0,0,-44,-106,2009,1,0,0,0,158,179,219,237,524291,0,0,1,1,-0.05333468827999193,0.014655170538081113,4.396463607636562,15,-5,0,15,-4,0,0,15,-4,0,158,179,219,237
446,34834373,15,-4,0,0,0,0,0,-3,0,0,0,1,1,-1,1000,15,-4,0,0,1617,25,718,0,1,0,-44,-106,2009,1,1,0,0,158,187,218,243,524291,0,0,1,1,-0.0533314216462599,0.014704065605536996,4.396464190695874,15,-7,0,15,-4,0,0,15,-5,0,158,187,218,243
448,34834982,15,-5,0,0,0,0,0,-4,0,0,0,1,1,-1,1000,15,-4,0,0,1617,25,718,0,1,0,-49,-104,2008,1,1,0,0,158,192,217,247,524291,0,0,1,1,-0.05332310621823331,0.014765372550085379,4.396464758676869,15,-9,0,15,-4,0,0,15,-5,0,158,192,217,247
450,34835600,15,-5,0,0,0,0,-1,-4,0,0,0,1,1,-1,1000,15,-4,0,0,1617,25,718,0,1,0,-49,-104,2008,1,1,0,0,158,195,214,248,524291,0,0,1,1,-0.053314864223416414,0.014826333363464473,4.396465334842883,14,-9,0,15,-4,0,0,15,-5,0,158,195,214,248
452,34836220,15,-5,0,0,0,0,-1,-4,0,0,0,1,1,-1,1000,15,-4,0,0,1617,25,718,0,1,0,-49,-103,2008,0,1,0,0,158,194,212,247,524291,0,0,1,1,-0.053304104794187464,0.014886834423629394,4.396465913043479,14,-9,0,15,-4,0,0,15,-5,0,158,194,212,247
454,34836835,15,-5,0,0,0,0,-1,-4,0,0,0,1,1,-1,1000,15,-4,0,0,1617,25,718,0,1,0,-49,-103,2008,0,-1,0,0,158,192,212,244,524291,0,0,1,1,-0.053293439333391666,0.014946758517277649,4.396466486351329,14,-9,0,15,-4,0,0,15,-5,0,158,192,212,244
456,34837452,15,-5,0,0,0,0,-1,-3,0,0,0,1,1,-1,1000,15,-4,0,0,1617,25,718,0,1,0,-47,-104,2009,-1,-2,0,0,158,186,212,239,524291,0,0,1,1,-0.05328530114451176,0.015001043809613281,4.396467060993855,14,-8,0,15,-4,0,0,15,-5,0,158,186,212,239
458,34838071,15,-4,0,0,0,0,0,-1,0,0,0,1,1,-1,1000,15,-4,0,0,1617,25,718,0,1,0,-47,-104,2009,-1,-2,0,0,158,179,214,236,524291,0,0,1,1,-0.05327723357325308,0.015054930927529776,4.396467637313657,15,-5,0,15,-4,0,0,15,-5,0,158,179,214,236
460,34838688,15,-4,0,0,0,0,0,0,0,0,0,1,1,-1,1000,15,-4,0,0,1617,25,718,0,0,0,-44,-108,2006,-1,-1,0,0,158,172,216,231,524291,0,0,1,1,-0.05327985012565913,0.01509009511644057,4.396467637024203,15,-4,0,15,-4,0,0,15,-4,0,158,172,216,231
462,34839305,15,-3,0,0,0,0,1,2,0,0,0,1,1,-1,1000,15,-4,0,0,1617,25,718,0,0,0,-44,-108,2006,-1,-2,0,0,158,164,218,226,524291,0,0,1,1,-0.053282444225604776,0.01512495752686475,4.396467636737211,16,-1,0,15,-4,0,0,15,-4,0,158,164,218,226
464,34839924,16,-3,0,0,0,0,1,3,0,0,0,1,1,-1,1000,15,-4,0,0,1617,25,718,0,-1,0,-42,-112,2004,-1,-2,0,0,160,158,223,223,524291,0,0,1,1,-0.0532954222260504,0.015143779253372612,4.396467059762031,17,0,0,15,-4,0,0,15,-3,0,160,158,223,223
466,34840540,16,-2,0,0,0,0,2,4,0,0,0,1,1,-1,1000,15,-4,0,0,1617,25,718,-1,-1,0,-42,-112,2004,-1,-1,0,0,166,158,231,225,524291,0,0,1,1,-0.05331898649935862,0.015162456055793864,4.396466485202343,18,2,0,15,-4,0,0,16,-3,0,166,158,231,225
468,34841157,16,-2,0,0,0,0,2,5,0,0,0,1,1,-1,1000,15,-4,0,0,1617,42,719,-1,-1,0,-43,-116,2003,0,-1,0,0,169,158,234,225,524291,0,0,1,1,-0.05335261470274204,0.015183472654450527,4.396465907918644,18,3,0,15,-4,0,0,16,-3,0,169,158,234,225
470,34841777,16,-2,0,0,0,0,1,5,0,0,0,1,1,-1,1000,15,-4,0,0,1617,42,719,0,-2,0,-43,-116,2003,1,-1,0,0,169,158,234,223,524291,0,0,1,1,-0.053375272741567614,0.015193472522540295,4.396464750009396,17,3,0,15,-4,0,0,15,-2,0,169,158,234,223
472,34842392,16,-2,0,0,0,0,1,4,0,0,0,1,1,-1,1000,15,-4,0,0,1617,42,719,0,-1,0,-48,-116,2001,1,0,0,0,166,158,229,220,524291,0,0,1,1,-0.05339801671085734,0.015226753664423644,4.396464173374152,17,2,0,15,-4,0,0,15,-3,0,166,158,229,220
474,34843010,15,-2,0,0,0,0,0,3,0,0,0,1,1,-1,1000,15,-4,0,0,1617,42,719,0,-1,0,-48,-116,2001,2,1,0,0,161,158,220,215,524291,0,0,1,1,-0.0534205706420636,0.01525966892910691,4.396463593489174,15,1,0,15,-4,0,0,15,-3,0,161,158,220,215
